[
  {
    "city": "Baltimore",
    "state": "MD",
    "lat": 39.2987,
    "lon": -76.5867,
    "total_games": 270,
    "avg_safety_score": 0.3805,
    "games_by_season": {
      "1938": 24,
      "1939": 25,
      "1940": 25,
      "1941": 25,
      "1942": 25,
      "1943": 25,
      "1944": 23,
      "1945": 25,
      "1946": 24,
      "1947": 25,
      "1948": 24
    },
    "listings_by_year": {}
  },
  {
    "city": "Birmingham",
    "state": "AL",
    "lat": 33.5125,
    "lon": -86.8434,
    "total_games": 350,
    "avg_safety_score": 0.4716,
    "games_by_season": {
      "1936": 25,
      "1937": 26,
      "1938": 27,
      "1939": 26,
      "1940": 28,
      "1941": 27,
      "1942": 27,
      "1943": 28,
      "1944": 26,
      "1945": 29,
      "1946": 27,
      "1947": 27,
      "1948": 27
    },
    "listings_by_year": {}
  },
  {
    "city": "Chicago",
    "state": "IL",
    "lat": 41.7497,
    "lon": -87.6349,
    "total_games": 363,
    "avg_safety_score": 0.3339,
    "games_by_season": {
      "1936": 27,
      "1937": 27,
      "1938": 27,
      "1939": 28,
      "1940": 28,
      "1941": 29,
      "1942": 29,
      "1943": 29,
      "1944": 27,
      "1945": 28,
      "1946": 28,
      "1947": 29,
      "1948": 27
    },
    "listings_by_year": {}
  },
  {
    "city": "Cleveland",
    "state": "OH",
    "lat": 41.5116,
    "lon": -81.6346,
    "total_games": 133,
    "avg_safety_score": 0.3407,
    "games_by_season": {
      "1944": 27,
      "1945": 27,
      "1946": 25,
      "1947": 26,
      "1948": 28
    },
    "listings_by_year": {}
  },
  {
    "city": "Indianapolis",
    "state": "IN",
    "lat": 39.7872,
    "lon": -86.1684,
    "total_games": 163,
    "avg_safety_score": 0.3559,
    "games_by_season": {
      "1943": 27,
      "1944": 28,
      "1945": 26,
      "1946": 26,
      "1947": 28,
      "1948": 28
    },
    "listings_by_year": {}
  },
  {
    "city": "Kansas City",
    "state": "MO",
    "lat": 39.0997,
    "lon": -94.5577,
    "total_games": 352,
    "avg_safety_score": 0.3445,
    "games_by_season": {
      "1936": 26,
      "1937": 26,
      "1938": 26,
      "1939": 26,
      "1940": 28,
      "1941": 28,
      "1942": 28,
      "1943": 28,
      "1944": 27,
      "1945": 27,
      "1946": 29,
      "1947": 26,
      "1948": 27
    },
    "listings_by_year": {}
  },
  {
    "city": "Memphis",
    "state": "TN",
    "lat": 35.1417,
    "lon": -90.03,
    "total_games": 344,
    "avg_safety_score": 0.475,
    "games_by_season": {
      "1936": 26,
      "1937": 25,
      "1938": 25,
      "1939": 26,
      "1940": 27,
      "1941": 27,
      "1942": 27,
      "1943": 26,
      "1944": 28,
      "1945": 26,
      "1946": 28,
      "1947": 27,
      "1948": 26
    },
    "listings_by_year": {}
  },
  {
    "city": "New York",
    "state": "NY",
    "lat": 40.8267,
    "lon": -73.9281,
    "total_games": 626,
    "avg_safety_score": 0.325,
    "games_by_season": {
      "1936": 47,
      "1937": 47,
      "1938": 48,
      "1939": 46,
      "1940": 47,
      "1941": 49,
      "1942": 49,
      "1943": 48,
      "1944": 49,
      "1945": 49,
      "1946": 50,
      "1947": 49,
      "1948": 48
    },
    "listings_by_year": {}
  },
  {
    "city": "Newark",
    "state": "NJ",
    "lat": 40.7128,
    "lon": -74.1594,
    "total_games": 285,
    "avg_safety_score": 0.3453,
    "games_by_season": {
      "1936": 24,
      "1937": 22,
      "1938": 23,
      "1939": 25,
      "1940": 24,
      "1941": 23,
      "1942": 23,
      "1943": 24,
      "1944": 25,
      "1945": 24,
      "1946": 24,
      "1947": 24
    },
    "listings_by_year": {}
  },
  {
    "city": "Philadelphia",
    "state": "PA",
    "lat": 39.971,
    "lon": -75.2139,
    "total_games": 308,
    "avg_safety_score": 0.3547,
    "games_by_season": {
      "1936": 24,
      "1937": 24,
      "1938": 24,
      "1939": 25,
      "1940": 24,
      "1941": 23,
      "1942": 23,
      "1943": 24,
      "1944": 24,
      "1945": 24,
      "1946": 23,
      "1947": 22,
      "1948": 24
    },
    "listings_by_year": {}
  },
  {
    "city": "Pittsburgh",
    "state": "PA",
    "lat": 40.4417,
    "lon": -79.9533,
    "total_games": 253,
    "avg_safety_score": 0.3381,
    "games_by_season": {
      "1936": 47,
      "1937": 49,
      "1938": 48,
      "1939": 24,
      "1940": 7,
      "1941": 10,
      "1942": 11,
      "1943": 8,
      "1944": 11,
      "1945": 9,
      "1946": 9,
      "1947": 12,
      "1948": 8
    },
    "listings_by_year": {}
  },
  {
    "city": "St. Louis",
    "state": "MO",
    "lat": 38.6339,
    "lon": -90.231,
    "total_games": 105,
    "avg_safety_score": 0.3555,
    "games_by_season": {
      "1936": 27,
      "1937": 27,
      "1938": 26,
      "1939": 25
    },
    "listings_by_year": {}
  },
  {
    "city": "Washington",
    "state": "DC",
    "lat": 38.9218,
    "lon": -77.0158,
    "total_games": 134,
    "avg_safety_score": 0.4191,
    "games_by_season": {
      "1940": 18,
      "1941": 15,
      "1942": 14,
      "1943": 16,
      "1944": 13,
      "1945": 14,
      "1946": 15,
      "1947": 13,
      "1948": 16
    },
    "listings_by_year": {}
  }
]